[{"categories":[{"categories":null,"class":"fi.foyt.foursquare.api.entities.Category","icon":"https://ss1.4sqi.net/img/categories/food/coffeeshop.png","id":"4bf58dd8d48988d1e0931735","name":"Coffee Shop","parents":["Food"],"pluralName":"Coffee Shops","primary":true}],"class":"fi.foyt.foursquare.api.entities.CompactVenue","contact":{"class":"fi.foyt.foursquare.api.entities.Contact","email":null,"facebook":null,"phone":"3122740092","twitter":"starbucks"},"hereNow":{"class":"fi.foyt.foursquare.api.entities.HereNow","count":0,"groups":[]},"id":"4a8ae9baf964a520d10a20e3","location":{"address":"750 N Franklin St","city":"Chicago","class":"fi.foyt.foursquare.api.entities.Location","country":"United States","crossStreet":null,"distance":115.0,"lat":41.896385,"lng":-87.635879,"name":null,"postalCode":"60654","state":"IL"},"name":"Starbucks","specials":[],"stats":{"checkinsCount":13153,"class":"fi.foyt.foursquare.api.entities.Stats","usersCount":3293},"tips":null,"todos":null,"url":"http://www.starbucks.com","verified":true},{"categories":[{"categories":null,"class":"fi.foyt.foursquare.api.entities.Category","icon":"https://ss1.4sqi.net/img/categories/food/coffeeshop.png","id":"4bf58dd8d48988d1e0931735","name":"Coffee Shop","parents":["Food"],"pluralName":"Coffee Shops","primary":true}],"class":"fi.foyt.foursquare.api.entities.CompactVenue","contact":{"class":"fi.foyt.foursquare.api.entities.Contact","email":null,"facebook":null,"phone":"3125730033","twitter":"starbucks"},"hereNow":{"class":"fi.foyt.foursquare.api.entities.HereNow","count":1,"groups":[{"class":"fi.foyt.foursquare.api.entities.CheckinGroup","count":1,"items":[],"name":"Other people here","type":"others"}]},"id":"4a9d9614f964a520953820e3","location":{"address":"600 N State St","city":"Chicago","class":"fi.foyt.foursquare.api.entities.Location","country":"United States","crossStreet":null,"distance":778.0,"lat":41.89244953843129,"lng":-87.62817973450147,"name":null,"postalCode":"60654","state":"IL"},"name":"Starbucks","specials":[{"class":"fi.foyt.foursquare.api.entities.CompleteSpecial","description":"Unlocked every check-in","finePrint":null,"icon":"check-in","id":"532352ce498eaaf30f18ca83","message":"A Starbucks Evenings menu exclusive: Free food item with your beverage purchase after 4 pm. Tell your barista to use ring code: 2040. Offer good March 14-31.","provider":"foursquare","redemption":"standard","state":null,"title":"Check-in Special","type":"frequency","unlocked":null,"venue":null}],"stats":{"checkinsCount":9492,"class":"fi.foyt.foursquare.api.entities.Stats","usersCount":3933},"tips":null,"todos":null,"url":"http://www.starbucks.com","verified":true},{"categories":[{"categories":null,"class":"fi.foyt.foursquare.api.entities.Category","icon":"https://ss1.4sqi.net/img/categories/food/coffeeshop.png","id":"4bf58dd8d48988d1e0931735","name":"Coffee Shop","parents":["Food"],"pluralName":"Coffee Shops","primary":true}],"class":"fi.foyt.foursquare.api.entities.CompactVenue","contact":{"class":"fi.foyt.foursquare.api.entities.Contact","email":null,"facebook":null,"phone":"3128329851","twitter":"starbucks"},"hereNow":{"class":"fi.foyt.foursquare.api.entities.HereNow","count":1,"groups":[{"class":"fi.foyt.foursquare.api.entities.CheckinGroup","count":1,"items":[],"name":"Other people here","type":"others"}]},"id":"4a97efb8f964a520ed2920e3","location":{"address":"505 N Michigan Ave","city":"Chicago","class":"fi.foyt.foursquare.api.entities.Location","country":"United States","crossStreet":"at Illinois St","distance":1128.0,"lat":41.891518731770695,"lng":-87.62410681034675,"name":null,"postalCode":"60611","state":"IL"},"name":"Starbucks","specials":[],"stats":{"checkinsCount":8130,"class":"fi.foyt.foursquare.api.entities.Stats","usersCount":4848},"tips":null,"todos":null,"url":"http://www.starbucks.com","verified":true},{"categories":[{"categories":null,"class":"fi.foyt.foursquare.api.entities.Category","icon":"https://ss1.4sqi.net/img/categories/food/coffeeshop.png","id":"4bf58dd8d48988d1e0931735","name":"Coffee Shop","parents":["Food"],"pluralName":"Coffee Shops","primary":true}],"class":"fi.foyt.foursquare.api.entities.CompactVenue","contact":{"class":"fi.foyt.foursquare.api.entities.Contact","email":null,"facebook":null,"phone":"3129515436","twitter":"starbucks"},"hereNow":{"class":"fi.foyt.foursquare.api.entities.HereNow","count":0,"groups":[]},"id":"4b008be4f964a520593f22e3","location":{"address":"1003 N Rush St","city":"Chicago","class":"fi.foyt.foursquare.api.entities.Location","country":"United States","crossStreet":null,"distance":959.0,"lat":41.90091516509257,"lng":-87.62759653330596,"name":null,"postalCode":"60611","state":"IL"},"name":"Starbucks","specials":[{"class":"fi.foyt.foursquare.api.entities.CompleteSpecial","description":"Unlocked every check-in","finePrint":null,"icon":"check-in","id":"532352ce498eaaf30f18ca83","message":"A Starbucks Evenings menu exclusive: Free food item with your beverage purchase after 4 pm. Tell your barista to use ring code: 2040. Offer good March 14-31.","provider":"foursquare","redemption":"standard","state":null,"title":"Check-in Special","type":"frequency","unlocked":null,"venue":null}],"stats":{"checkinsCount":12200,"class":"fi.foyt.foursquare.api.entities.Stats","usersCount":4116},"tips":null,"todos":null,"url":"http://www.starbucks.com","verified":true},{"categories":[{"categories":null,"class":"fi.foyt.foursquare.api.entities.Category","icon":"https://ss1.4sqi.net/img/categories/food/coffeeshop.png","id":"4bf58dd8d48988d1e0931735","name":"Coffee Shop","parents":["Food"],"pluralName":"Coffee Shops","primary":true}],"class":"fi.foyt.foursquare.api.entities.CompactVenue","contact":{"class":"fi.foyt.foursquare.api.entities.Contact","email":null,"facebook":null,"phone":"3126703920","twitter":"starbucks"},"hereNow":{"class":"fi.foyt.foursquare.api.entities.HereNow","count":0,"groups":[]},"id":"4aa01ae3f964a520513e20e3","location":{"address":"430 N Clark St","city":"Chicago","class":"fi.foyt.foursquare.api.entities.Location","country":"United States","crossStreet":null,"distance":759.0,"lat":41.8900114522897,"lng":-87.63121129685126,"name":null,"postalCode":"60654","state":"IL"},"name":"Starbucks","specials":[],"stats":{"checkinsCount":9008,"class":"fi.foyt.foursquare.api.entities.Stats","usersCount":3131},"tips":null,"todos":null,"url":"http://www.starbucks.com","verified":true},{"categories":[{"categories":null,"class":"fi.foyt.foursquare.api.entities.Category","icon":"https://ss1.4sqi.net/img/categories/food/coffeeshop.png","id":"4bf58dd8d48988d1e0931735","name":"Coffee Shop","parents":["Food"],"pluralName":"Coffee Shops","primary":true}],"class":"fi.foyt.foursquare.api.entities.CompactVenue","contact":{"class":"fi.foyt.foursquare.api.entities.Contact","email":null,"facebook":null,"phone":"3123218788","twitter":"starbucks"},"hereNow":{"class":"fi.foyt.foursquare.api.entities.HereNow","count":0,"groups":[]},"id":"4b0b40cef964a5207a2f23e3","location":{"address":"444 N Michigan Ave","city":"Chicago","class":"fi.foyt.foursquare.api.entities.Location","country":"United States","crossStreet":null,"distance":1169.0,"lat":41.89069022278936,"lng":-87.62408270912378,"name":null,"postalCode":"60611","state":"IL"},"name":"Starbucks","specials":[],"stats":{"checkinsCount":15171,"class":"fi.foyt.foursquare.api.entities.Stats","usersCount":5424},"tips":null,"todos":null,"url":"http://www.starbucks.com","verified":true},{"categories":[{"categories":null,"class":"fi.foyt.foursquare.api.entities.Category","icon":"https://ss1.4sqi.net/img/categories/food/coffeeshop.png","id":"4bf58dd8d48988d1e0931735","name":"Coffee Shop","parents":["Food"],"pluralName":"Coffee Shops","primary":true}],"class":"fi.foyt.foursquare.api.entities.CompactVenue","contact":{"class":"fi.foyt.foursquare.api.entities.Contact","email":null,"facebook":null,"phone":"3129516932","twitter":"starbucks"},"hereNow":{"class":"fi.foyt.foursquare.api.entities.HereNow","count":0,"groups":[]},"id":"4b1c2abbf964a520630324e3","location":{"address":"42 E Chicago Ave","city":"Chicago","class":"fi.foyt.foursquare.api.entities.Location","country":"United States","crossStreet":null,"distance":836.0,"lat":41.89667218504318,"lng":-87.62665664795044,"name":null,"postalCode":"60611","state":"IL"},"name":"Starbucks","specials":[],"stats":{"checkinsCount":630,"class":"fi.foyt.foursquare.api.entities.Stats","usersCount":357},"tips":null,"todos":null,"url":"http://www.starbucks.com","verified":true},{"categories":[{"categories":null,"class":"fi.foyt.foursquare.api.entities.Category","icon":"https://ss1.4sqi.net/img/categories/food/coffeeshop.png","id":"4bf58dd8d48988d1e0931735","name":"Coffee Shop","parents":["Food"],"pluralName":"Coffee Shops","primary":true}],"class":"fi.foyt.foursquare.api.entities.CompactVenue","contact":{"class":"fi.foyt.foursquare.api.entities.Contact","email":null,"facebook":null,"phone":"3128360100","twitter":"starbucks"},"hereNow":{"class":"fi.foyt.foursquare.api.entities.HereNow","count":1,"groups":[{"class":"fi.foyt.foursquare.api.entities.CheckinGroup","count":1,"items":[],"name":"Other people here","type":"others"}]},"id":"4ab2d21af964a5208e6c20e3","location":{"address":"38 E Ontario St","city":"Chicago","class":"fi.foyt.foursquare.api.entities.Location","country":"United States","crossStreet":"at N Wabash St","distance":852.0,"lat":41.893401016623976,"lng":-87.6267337674767,"name":null,"postalCode":"60611","state":"IL"},"name":"Starbucks","specials":[],"stats":{"checkinsCount":8137,"class":"fi.foyt.foursquare.api.entities.Stats","usersCount":3246},"tips":null,"todos":null,"url":"http://www.starbucks.com","verified":true},{"categories":[{"categories":null,"class":"fi.foyt.foursquare.api.entities.Category","icon":"https://ss1.4sqi.net/img/categories/food/coffeeshop.png","id":"4bf58dd8d48988d1e0931735","name":"Coffee Shop","parents":["Food"],"pluralName":"Coffee Shops","primary":true}],"class":"fi.foyt.foursquare.api.entities.CompactVenue","contact":{"class":"fi.foyt.foursquare.api.entities.Contact","email":null,"facebook":null,"phone":"3128670186","twitter":"starbucks"},"hereNow":{"class":"fi.foyt.foursquare.api.entities.HereNow","count":0,"groups":[]},"id":"44370b7df964a5200d321fe3","location":{"address":"210 W North Ave","city":"Chicago","class":"fi.foyt.foursquare.api.entities.Location","country":"United States","crossStreet":"at N Wells St","distance":1754.0,"lat":41.91121376149753,"lng":-87.63474384945968,"name":null,"postalCode":"60610","state":"IL"},"name":"Starbucks","specials":[],"stats":{"checkinsCount":14807,"class":"fi.foyt.foursquare.api.entities.Stats","usersCount":4869},"tips":null,"todos":null,"url":"http://www.starbucks.com","verified":true},{"categories":[{"categories":null,"class":"fi.foyt.foursquare.api.entities.Category","icon":"https://ss1.4sqi.net/img/categories/food/coffeeshop.png","id":"4bf58dd8d48988d1e0931735","name":"Coffee Shop","parents":["Food"],"pluralName":"Coffee Shops","primary":true}],"class":"fi.foyt.foursquare.api.entities.CompactVenue","contact":{"class":"fi.foyt.foursquare.api.entities.Contact","email":null,"facebook":null,"phone":"3122749546","twitter":"starbucks"},"hereNow":{"class":"fi.foyt.foursquare.api.entities.HereNow","count":0,"groups":[]},"id":"4a901d02f964a5200d1620e3","location":{"address":"30 W Erie St","city":"Chicago","class":"fi.foyt.foursquare.api.entities.Location","country":"United States","crossStreet":null,"distance":608.0,"lat":41.894258,"lng":-87.629475,"name":null,"postalCode":"60654","state":"IL"},"name":"Starbucks","specials":[],"stats":{"checkinsCount":4324,"class":"fi.foyt.foursquare.api.entities.Stats","usersCount":1554},"tips":null,"todos":null,"url":"http://www.starbucks.com","verified":true},{"categories":[{"categories":null,"class":"fi.foyt.foursquare.api.entities.Category","icon":"https://ss1.4sqi.net/img/categories/food/coffeeshop.png","id":"4bf58dd8d48988d1e0931735","name":"Coffee Shop","parents":["Food"],"pluralName":"Coffee Shops","primary":true}],"class":"fi.foyt.foursquare.api.entities.CompactVenue","contact":{"class":"fi.foyt.foursquare.api.entities.Contact","email":null,"facebook":null,"phone":null,"twitter":null},"hereNow":{"class":"fi.foyt.foursquare.api.entities.HereNow","count":0,"groups":[]},"id":"528f6eb6498ea8cd7df4fe35","location":{"address":"1 E Delaware Pl","city":"Chicago","class":"fi.foyt.foursquare.api.entities.Location","country":"United States","crossStreet":"N State","distance":790.0,"lat":41.89906458366643,"lng":-87.62835806726558,"name":null,"postalCode":"60611","state":"IL"},"name":"Starbucks","specials":[],"stats":{"checkinsCount":430,"class":"fi.foyt.foursquare.api.entities.Stats","usersCount":140},"tips":null,"todos":null,"url":null,"verified":false},{"categories":[{"categories":null,"class":"fi.foyt.foursquare.api.entities.Category","icon":"https://ss1.4sqi.net/img/categories/food/coffeeshop.png","id":"4bf58dd8d48988d1e0931735","name":"Coffee Shop","parents":["Food"],"pluralName":"Coffee Shops","primary":true}],"class":"fi.foyt.foursquare.api.entities.CompactVenue","contact":{"class":"fi.foyt.foursquare.api.entities.Contact","email":null,"facebook":null,"phone":"3127501454","twitter":"starbucks"},"hereNow":{"class":"fi.foyt.foursquare.api.entities.HereNow","count":0,"groups":[]},"id":"4e73881c922e0a374024c7b8","location":{"address":"8 N Michigan Ave","city":"Chicago","class":"fi.foyt.foursquare.api.entities.Location","country":"United States","crossStreet":null,"distance":1776.0,"lat":41.88226271393329,"lng":-87.62467861175537,"name":null,"postalCode":"60602","state":"IL"},"name":"Starbucks","specials":[],"stats":{"checkinsCount":4921,"class":"fi.foyt.foursquare.api.entities.Stats","usersCount":3279},"tips":null,"todos":null,"url":"http://www.starbucks.com","verified":true},{"categories":[{"categories":null,"class":"fi.foyt.foursquare.api.entities.Category","icon":"https://ss1.4sqi.net/img/categories/food/coffeeshop.png","id":"4bf58dd8d48988d1e0931735","name":"Coffee Shop","parents":["Food"],"pluralName":"Coffee Shops","primary":true}],"class":"fi.foyt.foursquare.api.entities.CompactVenue","contact":{"class":"fi.foyt.foursquare.api.entities.Contact","email":null,"facebook":null,"phone":"3124311757","twitter":"starbucks"},"hereNow":{"class":"fi.foyt.foursquare.api.entities.HereNow","count":0,"groups":[]},"id":"4fb6627be4b06b62455ed5d1","location":{"address":"200 S Michigan Ave","city":"Chicago","class":"fi.foyt.foursquare.api.entities.Location","country":"United States","crossStreet":null,"distance":2038.0,"lat":41.8795357555141,"lng":-87.6245984725218,"name":null,"postalCode":"60604","state":"IL"},"name":"Starbucks","specials":[{"class":"fi.foyt.foursquare.api.entities.CompleteSpecial","description":"Unlocked every check-in","finePrint":null,"icon":"check-in","id":"532352ce498eaaf30f18ca83","message":"A Starbucks Evenings menu exclusive: Free food item with your beverage purchase after 4 pm. Tell your barista to use ring code: 2040. Offer good March 14-31.","provider":"foursquare","redemption":"standard","state":null,"title":"Check-in Special","type":"frequency","unlocked":null,"venue":null}],"stats":{"checkinsCount":3971,"class":"fi.foyt.foursquare.api.entities.Stats","usersCount":2132},"tips":null,"todos":null,"url":"http://www.starbucks.com","verified":true},{"categories":[{"categories":null,"class":"fi.foyt.foursquare.api.entities.Category","icon":"https://ss1.4sqi.net/img/categories/food/coffeeshop.png","id":"4bf58dd8d48988d1e0931735","name":"Coffee Shop","parents":["Food"],"pluralName":"Coffee Shops","primary":true}],"class":"fi.foyt.foursquare.api.entities.CompactVenue","contact":{"class":"fi.foyt.foursquare.api.entities.Contact","email":null,"facebook":null,"phone":"3129516992","twitter":"starbucks"},"hereNow":{"class":"fi.foyt.foursquare.api.entities.HereNow","count":0,"groups":[]},"id":"4f5a13afe4b03a9f6a6ac02f","location":{"address":"39 W Division St","city":"Chicago","class":"fi.foyt.foursquare.api.entities.Location","country":"United States","crossStreet":"at N Dearborn St","distance":415.0,"lat":41.89402988272102,"lng":-87.6320306035033,"name":null,"postalCode":"60610","state":"IL"},"name":"Starbucks","specials":[],"stats":{"checkinsCount":77,"class":"fi.foyt.foursquare.api.entities.Stats","usersCount":54},"tips":null,"todos":null,"url":"http://www.starbucks.com","verified":false},{"categories":[{"categories":null,"class":"fi.foyt.foursquare.api.entities.Category","icon":"https://ss1.4sqi.net/img/categories/food/coffeeshop.png","id":"4bf58dd8d48988d1e0931735","name":"Coffee Shop","parents":["Food"],"pluralName":"Coffee Shops","primary":true}],"class":"fi.foyt.foursquare.api.entities.CompactVenue","contact":{"class":"fi.foyt.foursquare.api.entities.Contact","email":null,"facebook":null,"phone":"3129770018","twitter":"starbucks"},"hereNow":{"class":"fi.foyt.foursquare.api.entities.HereNow","count":0,"groups":[]},"id":"52f7c75e498e91b62d809bcf","location":{"address":"131 S State St","city":"Chicago","class":"fi.foyt.foursquare.api.entities.Location","country":"United States","crossStreet":"at E Adams St","distance":1929.0,"lat":41.87950892645303,"lng":-87.62768329097977,"name":null,"postalCode":"60603","state":"IL"},"name":"Starbucks","specials":[],"stats":{"checkinsCount":62,"class":"fi.foyt.foursquare.api.entities.Stats","usersCount":54},"tips":null,"todos":null,"url":null,"verified":false}]